{"results":[{"fsq_id":"4c431d7bcc410f47e5b2ad61","categories":[{"id":13034,"name":"Café","icon":{"prefix":"https://ss3.4sqi.net/img/categories_v2/food/cafe_","suffix":".png"}},{"id":13035,"name":"Coffee Shop","icon":{"prefix":"https://ss3.4sqi.net/img/categories_v2/food/coffeeshop_","suffix":".png"}},{"id":13334,"name":"Sandwich Restaurant","icon":{"prefix":"https://ss3.4sqi.net/img/categories_v2/food/deli_","suffix":".png"}}],"chains":[],"distance":6614,"geocodes":{"main":{"latitude":40.504184379169274,"longitude":-75.7008630562922}},"location":{"address":"28 Centre Ave","country":"US","dma":"Philadelphia","locality":"Topton","neighborhood":["Ringtown"],"postcode":"19562","region":"PA"},"name":"The Market Cafe","related_places":{},"timezone":"America/New_York"},{"fsq_id":"4b913e86f964a520b6ac33e3","categories":[{"id":13034,"name":"Café","icon":{"prefix":"https://ss3.4sqi.net/img/categories_v2/food/cafe_","suffix":".png"}},{"id":13068,"name":"American Restaurant","icon":{"prefix":"https://ss3.4sqi.net/img/categories_v2/food/default_","suffix":".png"}},{"id":13236,"name":"Italian Restaurant","icon":{"prefix":"https://ss3.4sqi.net/img/categories_v2/food/italian_","suffix":".png"}}],"chains":[],"distance":5476,"geocodes":{"main":{"latitude":40.57611,"longitude":-75.598282}},"location":{"address":"6750 Iroquois Trl","address_extended":"Ste 5","country":"US","cross_street":"","dma":"Philadelphia","locality":"Allentown","neighborhood":["Ruppsville"],"postcode":"18104","region":"PA"},"name":"Primo Cafe & Gelateria","related_places":{},"timezone":"America/New_York"},{"fsq_id":"519a664b498e5445e4063bc6","categories":[{"id":13034,"name":"Café","icon":{"prefix":"https://ss3.4sqi.net/img/categories_v2/food/cafe_","suffix":".png"}}],"chains":[],"distance":9444,"geocodes":{"main":{"latitude":40.530081,"longitude":-75.76314}},"location":{"address":"15305 Kutztown Rd","country":"US","cross_street":"","dma":"Philadelphia","locality":"Maxatawny","postcode":"19530","region":"PA"},"name":"Nectar's Cafe & Juice Bar At The Yoga House","related_places":{},"timezone":"America/New_York"},{"fsq_id":"4bb7857acf2fc9b665549e02","categories":[{"id":13177,"name":"Greek Restaurant","icon":{"prefix":"https://ss3.4sqi.net/img/categories_v2/food/greek_","suffix":".png"}},{"id":13302,"name":"Mediterranean Restaurant","icon":{"prefix":"https://ss3.4sqi.net/img/categories_v2/food/mediterranean_","suffix":".png"}},{"id":13309,"name":"Middle Eastern Restaurant","icon":{"prefix":"https://ss3.4sqi.net/img/categories_v2/food/middleeastern_","suffix":".png"}}],"chains":[],"distance":4119,"geocodes":{"front_door":{"latitude":40.582805,"longitude":-75.627008},"main":{"latitude":40.582805,"longitude":-75.62700799999999}},"location":{"address":"7720 Main St","address_extended":"Ste 7","country":"US","dma":"Philadelphia","locality":"Fogelsville","neighborhood":["East Fogelsville"],"postcode":"18051","region":"PA"},"name":"Mediterranean Cafe & Grill","related_places":{},"timezone":"America/New_York"},{"fsq_id":"4e832b8302d58d31af5666fb","categories":[{"id":13034,"name":"Café","icon":{"prefix":"https://ss3.4sqi.net/img/categories_v2/food/cafe_","suffix":".png"}}],"chains":[],"distance":4147,"geocodes":{"main":{"latitude":40.573116999999996,"longitude":-75.61425600000001}},"location":{"address":"7554 Schantz Rd","country":"US","cross_street":"Rt 100","dma":"Philadelphia","locality":"Allentown","postcode":"18106","region":"PA"},"name":"The Caf At Work","related_places":{},"timezone":"America/New_York"},{"fsq_id":"574df500cd1069681f21e0aa","categories":[{"id":13034,"name":"Café","icon":{"prefix":"https://ss3.4sqi.net/img/categories_v2/food/cafe_","suffix":".png"}}],"chains":[],"distance":7534,"geocodes":{"main":{"latitude":40.548844,"longitude":-75.566201}},"location":{"address":"PAR Cswy","country":"US","cross_street":"","dma":"Philadelphia","locality":"Lower Macungie Township","postcode":"18106","region":"PA"},"name":"Parkside Oasis Ice Cream","related_places":{},"timezone":"America/New_York"},{"fsq_id":"4f2a9710e4b04e33ba8f5f11","categories":[{"id":11057,"name":"Caterer","icon":{"prefix":"https://ss3.4sqi.net/img/categories_v2/shops/foodanddrink_","suffix":".png"}}],"chains":[],"distance":8434,"geocodes":{"main":{"latitude":40.58979034423828,"longitude":-75.56819915771484}},"location":{"address":"5100 W Tilghman St","address_extended":"Ste 135","country":"US","cross_street":"","dma":"Philadelphia","locality":"Allentown","postcode":"18104","region":"PA"},"name":"Corporate Cuisine","related_places":{},"timezone":"America/New_York"},{"fsq_id":"4bc746f6af07a59337d87e2d","categories":[{"id":13034,"name":"Café","icon":{"prefix":"https://ss3.4sqi.net/img/categories_v2/food/cafe_","suffix":".png"}},{"id":13065,"name":"Restaurant","icon":{"prefix":"https://ss3.4sqi.net/img/categories_v2/food/default_","suffix":".png"}}],"chains":[],"distance":8938,"geocodes":{"main":{"latitude":40.58905029296875,"longitude":-75.56089782714844}},"location":{"address":"4686 W Tilghman St","country":"US","cross_street":"Tilghman Square Shopping Center","dma":"Philadelphia","locality":"Allentown","neighborhood":["Park Way Manor"],"postcode":"18104","region":"PA"},"name":"Relish","related_places":{},"timezone":"America/New_York"},{"fsq_id":"4d5ec95ad7206ea83303e1f1","categories":[{"id":13035,"name":"Coffee Shop","icon":{"prefix":"https://ss3.4sqi.net/img/categories_v2/food/coffeeshop_","suffix":".png"}},{"id":13303,"name":"Mexican Restaurant","icon":{"prefix":"https://ss3.4sqi.net/img/categories_v2/food/mexican_","suffix":".png"}}],"chains":[],"distance":4698,"geocodes":{"main":{"latitude":40.54978621863757,"longitude":-75.59977363502634}},"location":{"address":"7370 Hamilton Blvd","country":"US","dma":"Philadelphia","locality":"Upper Macungie Township","postcode":"18087","region":"PA"},"name":"Java Joint","related_places":{},"timezone":"America/New_York"},{"fsq_id":"4e24d21ac65b9b1c2b5a4419","categories":[{"id":13046,"name":"Ice Cream Parlor","icon":{"prefix":"https://ss3.4sqi.net/img/categories_v2/food/icecream_","suffix":".png"}}],"chains":[],"distance":2232,"geocodes":{"front_door":{"latitude":40.543726,"longitude":-75.679294},"main":{"latitude":40.5434545596087,"longitude":-75.67884605459929}},"location":{"address":"10860 Hamilton Blvd","country":"US","cross_street":"","dma":"Philadelphia","locality":"Breinigsville","postcode":"18031","region":"PA"},"name":"The Shoppes Of Premise Maid","related_places":{},"timezone":"America/New_York"}],"context":{"geo_bounds":{"circle":{"center":{"latitude":40.5526,"longitude":-75.6553},"radius":10000}}}}